{
    "rue": "Rue des Arts",
    "stops": [
      { "name": "Porte Dauphine", "position": 1, "coordinates": {"lat": 48.8703, "lon": 2.2809} },
      { "name": "Victor Hugo", "position": 2, "coordinates": {"lat": 48.8696, "lon": 2.2847} },
      { "name": "Charles de Gaulle-Étoile", "position": 3, "coordinates": {"lat": 48.8738, "lon": 2.2945} },
      { "name": "Ternes", "position": 4, "coordinates": {"lat": 48.8781, "lon": 2.2957} },
      { "name": "Courcelles", "position": 5, "coordinates": {"lat": 48.8792, "lon": 2.3041} },
      { "name": "Monceau", "position": 6, "coordinates": {"lat": 48.8803, "lon": 2.3082} },
      { "name": "Villiers", "position": 7, "coordinates": {"lat": 48.8817, "lon": 2.3142} },
      { "name": "Rome", "position": 8, "coordinates": {"lat": 48.8826, "lon": 2.3208} },
      { "name": "Place de Clichy", "position": 9, "coordinates": {"lat": 48.8835, "lon": 2.3279} },
      { "name": "Blanche", "position": 10, "coordinates": {"lat": 48.8836, "lon": 2.3333} },
      { "name": "Pigalle", "position": 11, "coordinates": {"lat": 48.8820, "lon": 2.3372} },
      { "name": "Anvers", "position": 12, "coordinates": {"lat": 48.8821, "lon": 2.3437} },
      { "name": "Barbès-Rochechouart", "position": 13, "coordinates": {"lat": 48.8834, "lon": 2.3497} },
      { "name": "La Chapelle", "position": 14, "coordinates": {"lat": 48.8842, "lon": 2.3592} },
      { "name": "Stalingrad", "position": 15, "coordinates":  {"lat": 48.8845, "lon": 2.3692} },
      { "name": "Jaurès", "position": 16, "coordinates": {"lat": 48.8821, "lon": 2.3700} },
      { "name": "Colonel Fabien", "position": 17, "coordinates": {"lat": 48.8781, "lon": 2.3707} },
      { "name": "Belleville", "position": 18, "coordinates": {"lat": 48.8719, "lon": 2.3762} },
      { "name": "Couronnes", "position": 19, "coordinates": {"lat": 48.8693, "lon": 2.3795} },
      { "name": "Ménilmontant", "position": 20, "coordinates": {"lat": 48.8654, "lon": 2.3831} },
      { "name": "Père Lachaise", "position": 21, "coordinates": {"lat": 48.8618, "lon": 2.3931} },
      { "name": "Philippe Auguste", "position": 22, "coordinates": {"lat": 48.8587, "lon": 2.3962} },
      { "name": "Alexandre Dumas", "position": 23, "coordinates": {"lat": 48.8571, "lon": 2.4014} },
      { "name": "Avron", "position": 24, "coordinates": {"lat": 48.8502, "lon": 2.4003} },
      { "name": "Nation", "position": 25, "coordinates": {"lat": 48.8487, "lon": 2.3959} }
    ]
  }