{
    "rue": "Rue du May",
    "stops": [
      { "name": "Châtelet", "position": 1, "coordinates": {"lat": 48.8584, "lon": 2.3470} },
      { "name": "Hôtel de Ville", "position": 2, "coordinates": {"lat": 48.8575, "lon": 2.3510} },
      { "name": "Rambuteau", "position": 3, "coordinates": {"lat": 48.8617, "lon": 2.3537} },
      { "name": "Arts et Métiers", "position": 4, "coordinates": {"lat": 48.8653, "lon": 2.3608} },
      { "name": "République", "position": 5, "coordinates": {"lat": 48.8672, "lon": 2.3625} },
      { "name": "Goncourt", "position": 6, "coordinates": {"lat": 48.8704, "lon": 2.3706} },
      { "name": "Belleville", "position": 7, "coordinates": {"lat": 48.8719, "lon": 2.3762} },
      { "name": "Pyrénées", "position": 8, "coordinates": {"lat": 48.8775, "lon": 2.3893} },
      { "name": "Jourdain", "position": 9, "coordinates": {"lat": 48.8778, "lon": 2.3922} },
      { "name": "Place des Fêtes", "position": 10, "coordinates": {"lat": 48.8763, "lon": 2.3959} },
      { "name": "Télégraphe", "position": 11, "coordinates": {"lat": 48.8773, "lon": 2.4018} },
      { "name": "Porte des Lilas", "position": 12, "coordinates": {"lat": 48.8774, "lon": 2.4076} },
      { "name": "Mairie des Lilas", "position": 13, "coordinates": {"lat": 48.8801, "lon": 2.4194} }
    ]
  }