{
    "rue": "Rue Pargaminières",
    "stops": [
      { "name": "Pont de Levallois-Bécon", "position": 1, "coordinates": {"lat": 48.89663969999999, "lon": 2.2763036} },
      { "name": "Anatole France", "position": 2, "coordinates": {"lat": 48.8937842, "lon": 2.2768444} },
      { "name": "Louise Michel", "position": 3, "coordinates": {"lat": 48.8899621, "lon": 2.2761696} },
      { "name": "Porte de Champerret", "position": 4, "coordinates": {"lat": 48.8848839, "lon": 2.2871853} },
      { "name": "Pereire", "position": 5, "coordinates": {"lat": 48.8842266, "lon": 2.2978262} },
      { "name": "Wagram", "position": 6, "coordinates": {"lat": 48.8843336, "lon": 2.3013368} },
      { "name": "Malesherbes", "position": 7, "coordinates": {"lat": 48.8830651, "lon": 2.3081926} },
      { "name": "Villiers", "position": 8, "coordinates": {"lat": 48.8831023, "lon": 2.3145411} },
      { "name": "Europe", "position": 9, "coordinates": {"lat": 48.8783999, "lon": 2.3221934} },
      { "name": "Saint-Lazare", "position": 10, "coordinates": {"lat": 48.87561, "lon": 2.325765} },
      { "name": "Havre-Caumartin", "position": 11, "coordinates": {"lat": 48.8733743, "lon": 2.3287408} },
      { "name": "Opéra", "position": 12, "coordinates": {"lat": 48.871847, "lon": 2.3321708} },
      { "name": "Quatre-Septembre", "position": 13, "coordinates": {"lat": 48.8694702, "lon": 2.3362997} },
      { "name": "Bourse", "position": 14, "coordinates": {"lat": 48.8681157, "lon": 2.3402663} },
      { "name": "Sentier", "position": 15, "coordinates": {"lat": 48.867184, "lon": 2.3463857} },
      { "name": "Réaumur-Sébastopol", "position": 16, "coordinates": {"lat": 48.8679145, "lon": 2.3528853} },
      { "name": "Arts et Métiers", "position": 17, "coordinates": {"lat": 48.8653, "lon": 2.3608} },
      { "name": "Temple", "position": 18, "coordinates": {"lat": 48.8648062, "lon": 2.3608156} },
      { "name": "République", "position": 19, "coordinates": {"lat": 48.8670334, "lon": 2.3635366} },
      { "name": "Parmentier", "position": 20, "coordinates": {"lat": 48.8649938, "lon": 2.3772017} },
      { "name": "Rue Saint-Maur", "position": 21, "coordinates": {"lat": 48.8634196, "lon": 2.3806963} },
      { "name": "Père Lachaise", "position": 22, "coordinates": {"lat": 48.8638937, "lon": 2.3876932} },
      { "name": "Gambetta", "position": 23, "coordinates": {"lat": 48.8645277, "lon": 2.3980726} },
      { "name": "Porte de Bagnolet", "position": 24, "coordinates": {"lat": 48.8644881, "lon": 2.4116307} },
      { "name": "Gallieni", "position": 25, "coordinates": {"lat": 48.86677400000001, "lon": 2.417147} }
    ]
  }